Neighborhood,Street Address,City,State,Zipcode,Latitude,Longitude,Property Type,Lot Size (Sq.Ft.),Finished Size (Sq.Ft.),Rent Amount,Rent-to-Finished Size Ratio,Year Built,Bathroom,Bedrooms,Total Rooms,ZPID
Duquesne Heights,1700 Grandview Ave APT 802,Pittsburgh,PA,15211,40.440977,-80.024997,Condominium,1411,1411,2342,1.66,1817,2,2,6,11585170
Southside Slopes,103 Brosville St,Pittsburgh,PA,15203,40.424783,-79.985837,SingleFamily,6534,1440,1364,0.95,1848,2,3,4,11475164
Southside Flats,1929 Sidney St,Pittsburgh,PA,15203,40.429698,-79.977926,SingleFamily,5000,2400,2400,1,1862,2,3,8,11290824
Point Breeze,7725 Abbott St,Pittsburgh,PA,15221,40.441908,-79.894637,SingleFamily,5000,2372,1819,0.77,1875,1.5,3,8,11341919
Central Northside,1525 Garfield Ave,Pittsburgh,PA,15212,40.458108,-80.012692,SingleFamily,1960,2080,2100,1.01,1880,2.5,4,8,11387675
Central Northside,1409 Monterey St,Pittsburgh,PA,15212,40.456776,-80.013623,SingleFamily,1190,1284,1263,0.98,1880,1,2,4,11388193
Mount Washington,322 Arlington Ave,Pittsburgh,PA,15203,40.428614,-79.997824,MultiFamily2To4,4140,3225,1692,0.52,1880,2.5,6,10,11474210
Central Lawrenceville,342 Service Way,Pittsburgh,PA,15201,40.469184,-79.955728,SingleFamily,1000,1020,1075,1.05,1880,1,2,4,11513647
Mount Washington,7 Norton St,Pittsburgh,PA,15211,40.427185,-80.00945,SingleFamily,2200,1152,1132,0.98,1880,2,2,5,11516249
Chartiers City,1450 Isoline St,Pittsburgh,PA,15204,40.455648,-80.072071,SingleFamily,5500,1707,962,0.56,1880,1,3,8,11592640
Central Lawrenceville,117 47th St,Pittsburgh,PA,15201,40.47585,-79.960391,SingleFamily,906,966,1017,1.05,1880,1,2,5,11613174
Mount Washington,332 Merrimac St,Pittsburgh,PA,15211,40.430634,-80.014175,SingleFamily,5201,2277,1528,0.67,1880,3.5,4,8,121886464
Marshall - Shadeland,3147 Brighton Rd,Pittsburgh,PA,15212,40.474984,-80.030128,MultiFamily2To4,1815,3220,879,0.27,1881,2,5,12,11605934
Highland Park,5807 Stanton Ave,Pittsburgh,PA,15206,40.470528,-79.92264,SingleFamily,5720,3400,1412,0.42,1883,2.5,7,10,11622443
East Liberty,739 N Beatty St,Pittsburgh,PA,15206,40.469462,-79.922702,SingleFamily,2333,2612,1401,0.54,1886,2.5,4,7,11622941
Southside Flats,1806 Wharton St,Pittsburgh,PA,15203,40.430297,-79.980018,SingleFamily,2400,1232,1709,1.39,1890,2,2,6,11290680
Arlington,2926 Arlington Ave,Pittsburgh,PA,15210,40.417009,-79.966531,SingleFamily,7510,1986,917,0.46,1890,2,3,6,11308743
Mount Washington,635 Boggs Ave,Pittsburgh,PA,15211,40.420584,-80.010436,SingleFamily,4777,1528,1120,0.73,1890,2,3,6,11323965
Central Lawrenceville,217 42nd St,Pittsburgh,PA,15201,40.470098,-79.959945,Townhouse,538,1456,1049,0.72,1890,2.5,3,5,11512846
Bloomfield,311 S Evaline St,Pittsburgh,PA,15224,40.461797,-79.941318,SingleFamily,3638,2910,2319,0.8,1890,3.5,4,8,11524321
Shadyside,5922 Howe St APT 302,Pittsburgh,PA,15232,40.452696,-79.925589,Condominium,1402,1402,2423,1.73,1890,2,2,4,11628808
Marshall - Shadeland,1025 Smithton Ave,Pittsburgh,PA,15212,40.473932,-80.025917,SingleFamily,10693,952,823,0.86,1891,1,2,5,11606390
Bloomfield,364 S Atlantic Ave,Pittsburgh,PA,15224,40.460181,-79.939587,MultiFamily2To4,8000,4763,1789,0.38,1894,,0,11,11524380
Shadyside,628 S Aiken Ave,Pittsburgh,PA,15232,40.451782,-79.936567,SingleFamily,6805,3996,3371,0.84,1895,2.5,4,9,11528792
Lincoln Place,1147 Rodgers St,Pittsburgh,PA,15207,40.368206,-79.915657,MultiFamily2To4,4091,1296,846,0.65,1896,,0,7,11351937
Point Breeze,528 Hastings St,Pittsburgh,PA,15206,40.448699,-79.915604,SingleFamily,2400,1640,2138,1.3,1897,1.5,4,6,11287530
Central Lawrenceville,137 46th St,Pittsburgh,PA,15201,40.474345,-79.960679,SingleFamily,700,1200,1227,1.02,1898,2,2,5,11613397
Shadyside,5927 Howe St APT B3,Pittsburgh,PA,15232,40.453201,-79.925623,Condominium,725,722,1229,1.7,1898,1,1,2,11625410
Mount Washington,300 Cola St,Pittsburgh,PA,15203,40.429335,-80.001514,SingleFamily,7463,1586,2231,1.41,1899,3,3,6,11515913
Brighton Heights,1022 Lapish Rd,Pittsburgh,PA,15212,40.487702,-80.030126,SingleFamily,8721,2123,1374,0.65,1900,3.5,3,6,11269762
Upper Lawrenceville,205 54th St,Pittsburgh,PA,15201,40.482588,-79.950557,SingleFamily,1742,1918,1186,0.62,1900,2,3,8,11272814
Homewood North,1114 Lincoln Ave,Pittsburgh,PA,15206,40.464311,-79.899545,SingleFamily,2613,1218,861,0.71,1900,2,4,6,11285514
Southside Flats,1712 Fox Way,Pittsburgh,PA,15203,40.43005,-79.981325,SingleFamily,1200,2084,2025,0.97,1900,1.5,3,6,11290548
Southside Flats,1817 Wharton St,Pittsburgh,PA,15203,40.430701,-79.979665,SingleFamily,945,1130,1741,1.54,1900,2,3,6,11290620
Southside Flats,2321 Wrights Way,Pittsburgh,PA,15203,40.42886,-79.971986,SingleFamily,833,1092,1430,1.31,1900,2,3,5,11290879
Southside Flats,109 S 17th St,Pittsburgh,PA,15203,40.428121,-79.981948,SingleFamily,1440,2640,1932,0.73,1900,1,2,10,11290953
Southside Flats,97 S 19th St,Pittsburgh,PA,15203,40.428295,-79.97898,SingleFamily,743,1644,1821,1.11,1900,2,4,10,11291140
Southside Flats,99 S 19th St,Pittsburgh,PA,15203,40.428257,-79.978984,SingleFamily,673,1148,1525,1.33,1900,3,3,8,11291141
Southside Flats,1926 Larkins Way,Pittsburgh,PA,15203,40.427141,-79.978247,SingleFamily,1200,1028,1397,1.36,1900,1,2,8,11291338
Southside Flats,2310 Carey Way,Pittsburgh,PA,15203,40.427716,-79.972614,SingleFamily,1151,2644,2786,1.05,1900,3,3,8,11291504
Southside Flats,138 S 23rd St,Pittsburgh,PA,15203,40.426386,-79.973466,SingleFamily,1440,2166,2096,0.97,1900,2.5,3,6,11291647
Southside Flats,2521 Sarah St,Pittsburgh,PA,15203,40.426984,-79.969326,SingleFamily,2400,918,1226,1.34,1900,1,3,4,11291660
Southside Slopes,85 Pius St,Pittsburgh,PA,15203,40.42468,-79.981669,SingleFamily,2000,882,1172,1.33,1900,1.5,2,4,11291792
Southside Slopes,2016 Gregory St,Pittsburgh,PA,15203,40.423472,-79.978519,SingleFamily,2160,1956,1258,0.64,1900,2,3,6,11307454
Southside Slopes,2618 Mccord St,Pittsburgh,PA,15203,40.423286,-79.969332,SingleFamily,1600,1160,1241,1.07,1900,3,3,5,11307704
Southside Slopes,2706 Niles St,Pittsburgh,PA,15203,40.42027,-79.969517,Condominium,1600,1202,1125,0.94,1900,1,2,5,11308218
Swisshelm Park,255 Homestead St,Pittsburgh,PA,15218,40.422373,-79.898707,SingleFamily,7200,1650,1426,0.86,1900,1.5,2,5,11345098
Sheraden,2710 Glasgow St,Pittsburgh,PA,15204,40.456284,-80.046603,SingleFamily,42925,1370,889,0.65,1900,1,3,6,11371238
Manchester,1209 N Franklin St,Pittsburgh,PA,15233,40.456362,-80.0234,Condominium,1054,1816,938,0.52,1900,1,3,9,11376055
Manchester,1331 Liverpool St,Pittsburgh,PA,15233,40.454909,-80.026269,MultiFamily2To4,3049,3392,1300,0.38,1900,3.5,4,11,11376338
Perry South,1672 Perrysville Ave,Pittsburgh,PA,15212,40.461021,-80.009406,SingleFamily,1140,1008,880,0.87,1900,1,1,6,11387342
Fine View,21 Carrie St,Pittsburgh,PA,15212,40.461488,-80.001624,SingleFamily,5227,1632,903,0.55,1900,1,3,6,11387527
Spring Hill - City View,1223 Itin St,Pittsburgh,PA,15212,40.462044,-79.991242,SingleFamily,2266,1696,930,0.55,1900,2,4,8,11394458
East Allegheny,604 Middle St,Pittsburgh,PA,15212,40.453358,-79.998909,SingleFamily,804,1283,1151,0.9,1900,2,2,4,11395496
Oakland,501 Cato St,Pittsburgh,PA,15213,40.433368,-79.956207,MultiFamily2To4,1640,3052,1269,0.42,1900,,0,12,11413476
Oakland,3286 Dawson St,Pittsburgh,PA,15213,40.432552,-79.953288,MultiFamily2To4,2799,2540,1331,0.52,1900,2,5,9,11420093
Banksville,2321 Potomac Ave,Pittsburgh,PA,15216,40.40534,-80.043868,SingleFamily,65340,1392,1159,0.83,1900,1,2,6,11453441
Sheraden,3022 Merwyn Ave,Pittsburgh,PA,15204,40.457785,-80.052283,SingleFamily,2500,1819,837,0.46,1900,1,3,6,11482784
Sheraden,2947 Sacramento Ave,Pittsburgh,PA,15204,40.457386,-80.0503,SingleFamily,2482,1663,899,0.54,1900,2,4,6,11483302
Perry South,339 Lafayette Ave,Pittsburgh,PA,15214,40.465988,-80.006487,SingleFamily,5250,2534,953,0.38,1900,3,3,10,11505838
Spring Hill - City View,1800 Walz St,Pittsburgh,PA,15212,40.464492,-79.991,SingleFamily,7800,1246,940,0.75,1900,2,2,6,11511793
Troy Hill,2025 Veronica St,Pittsburgh,PA,15212,40.468966,-79.980845,SingleFamily,2200,1174,849,0.72,1900,1,2,6,11512076
Central Lawrenceville,232 45th St,Pittsburgh,PA,15201,40.471306,-79.958516,SingleFamily,1819,1911,1588,0.83,1900,2.5,2,5,11512903
Central Lawrenceville,357 44th St,Pittsburgh,PA,15201,40.469021,-79.956023,SingleFamily,2160,2848,1288,0.45,1900,2,3,8,11513601
Lower Lawrenceville,3935 Howley St,Pittsburgh,PA,15224,40.463612,-79.958353,SingleFamily,1940,1256,1131,0.9,1900,1,2,6,11514617
Bloomfield,4028 Howley St,Pittsburgh,PA,15224,40.463623,-79.955983,MultiFamily2To4,1300,952,1032,1.08,1900,1,2,4,11514905
Shadyside,536 S Graham St,Pittsburgh,PA,15232,40.455341,-79.936066,SingleFamily,2776,2256,2786,1.23,1900,2.5,4,7,11525225
Hazelwood,4539 Parnell St,Pittsburgh,PA,15207,40.416287,-79.941649,SingleFamily,3049,1500,1118,0.75,1900,1,3,6,11545383
Carrick,1519 Amanda Ave,Pittsburgh,PA,15210,40.400464,-79.987908,SingleFamily,3332,1846,900,0.49,1900,2,4,6,11556504
Brighton Heights,3450 Fleming Ave,Pittsburgh,PA,15212,40.47807,-80.038319,MultiFamily2To4,2000,2802,958,0.34,1900,3,4,,11603915
Upper Lawrenceville,5222 Dresden Way,Pittsburgh,PA,15201,40.480632,-79.953487,SingleFamily,1120,1172,1076,0.92,1900,1,2,4,11612514
Upper Lawrenceville,5136 Holmes St,Pittsburgh,PA,15201,40.478293,-79.952128,SingleFamily,3000,1596,1122,0.7,1900,2.5,4,7,11612810
East Liberty,5818 Hays St,Pittsburgh,PA,15206,40.468206,-79.92329,SingleFamily,3100,2597,978,0.38,1900,3.5,5,10,11623008
Shadyside,353 S Highland Ave,Pittsburgh,PA,15206,40.455575,-79.924935,SingleFamily,5250,2561,2897,1.13,1900,2.5,3,7,11624992
Shadyside,350 Spahr St,Pittsburgh,PA,15232,40.455761,-79.927896,SingleFamily,2492,1753,2168,1.24,1900,1.5,3,6,11625070
Point Breeze,630 Hastings St,Pittsburgh,PA,15206,40.447627,-79.916593,Condominium,2304,1594,2087,1.31,1900,1.5,3,6,11629596
Squirrel Hill North,1452 Beechwood Blvd,Pittsburgh,PA,15217,40.442439,-79.917725,SingleFamily,40000,5672,3810,0.67,1900,5.5,8,10,11630876
Overbrook,16 Jacob St,Pittsburgh,PA,15234,40.385938,-79.997298,SingleFamily,4455,842,828,0.98,1900,1,2,4,11648085
Brighton Heights,1610 Davis Ave,Pittsburgh,PA,15212,40.480534,-80.040151,MultiFamily2To4,4913,3007,944,0.31,1901,3,4,8,11603720
Knoxville,415 Charles St,Pittsburgh,PA,15210,40.416636,-79.996268,MultiFamily2To4,3750,2306,849,0.37,1902,2,0,14,11316041
Fine View,1729 Warren St,Pittsburgh,PA,15212,40.462146,-80.002896,SingleFamily,2760,2081,884,0.42,1902,2,3,6,11387587
Knoxville,433 Moore Ave,Pittsburgh,PA,15210,40.411544,-79.996075,SingleFamily,5215,1862,866,0.47,1902,2,2,8,11435567
Squirrel Hill North,5618 Woodmont St,Pittsburgh,PA,15217,40.441768,-79.926799,SingleFamily,5640,4336,2399,0.55,1902,3.5,7,14,11630638
Shadyside,732 Maryland Ave,Pittsburgh,PA,15232,40.453052,-79.929389,SingleFamily,4500,2402,2587,1.08,1903,2.5,4,10,11625282
Bloomfield,5407 Friendship Ave,Pittsburgh,PA,15232,40.462076,-79.936933,SingleFamily,3999,2975,1839,0.62,1904,3,6,13,11524485
Mount Washington,150 Ulysses St,Pittsburgh,PA,15211,40.433564,-80.012606,SingleFamily,2800,1200,1187,0.99,1905,1,3,5,11363439
East Allegheny,1214 James St,Pittsburgh,PA,15212,40.45735,-80.001661,SingleFamily,1350,2360,1152,0.49,1905,2,4,10,11388914
Shadyside,5421 Claybourne St,Pittsburgh,PA,15232,40.455309,-79.937307,SingleFamily,2600,2205,2494,1.13,1905,2.5,4,7,11525166
Squirrel Hill North,5435 Dunmoyle Ave,Pittsburgh,PA,15217,40.447345,-79.932124,SingleFamily,26694,5088,3463,0.68,1905,7.5,5,12,11629347
Squirrel Hill North,5731 Northumberland St,Pittsburgh,PA,15217,40.441579,-79.924301,SingleFamily,4899,2919,3049,1.04,1907,3.5,5,8,11630824
Point Breeze,6731 Reynolds St,Pittsburgh,PA,15206,40.450723,-79.914273,SingleFamily,2616,1620,2201,1.36,1908,2.5,3,6,11287065
Point Breeze,428 Hastings St,Pittsburgh,PA,15206,40.449547,-79.914849,SingleFamily,2700,1743,2063,1.18,1910,1.5,5,5,11287542
Arlington,119 Fitler St,Pittsburgh,PA,15210,40.417038,-79.970231,SingleFamily,4000,1606,903,0.56,1910,1,3,6,11308677
Beltzhoover,328 Sylvania Ave,Pittsburgh,PA,15210,40.417179,-80.001238,SingleFamily,2562,1855,877,0.47,1910,1,2,8,11324557
Elliott,801 Wymore St,Pittsburgh,PA,15220,40.440616,-80.042503,MultiFamily2To4,4704,2294,951,0.41,1910,,0,8,11362144
Mount Washington,116 Bigham St,Pittsburgh,PA,15211,40.435448,-80.015025,MultiFamily2To4,2880,2103,1105,0.53,1910,,0,12,11363467
Elliott,306 Marlow St,Pittsburgh,PA,15220,40.444145,-80.037856,Townhouse,2178,1454,926,0.64,1910,1,3,6,11367080
Sheraden,2911 Stafford St,Pittsburgh,PA,15204,40.456153,-80.05025,SingleFamily,2500,1650,925,0.56,1910,1,3,6,11483265
Sheraden,1207 Adon St,Pittsburgh,PA,15204,40.452861,-80.061794,MultiFamily2To4,2650,2000,804,0.4,1910,,0,10,11483507
Spring Garden,1910 Spring Garden Ave,Pittsburgh,PA,15212,40.46898,-79.985778,SingleFamily,3223,1760,930,0.53,1910,1,3,4,11511235
Central Lawrenceville,322 Main St,Pittsburgh,PA,15201,40.466892,-79.95735,SingleFamily,3452,3024,1342,0.44,1910,2.5,4,9,11514143
Mount Washington,4 Lowen St,Pittsburgh,PA,15211,40.429635,-80.01244,SingleFamily,2236,844,1159,1.37,1910,1.5,2,4,11515591
Shadyside,724 Filbert St,Pittsburgh,PA,15232,40.451899,-79.933525,SingleFamily,2650,1600,2651,1.66,1910,3.5,4,5,11528772
Brighton Heights,3515 Fleming Ave,Pittsburgh,PA,15212,40.478868,-80.03913,MultiFamily2To4,3000,1890,857,0.45,1910,2,2,7,11603886
Highland Park,912 N Highland Ave,Pittsburgh,PA,15206,40.47134,-79.919894,SingleFamily,5740,2813,2510,0.89,1910,3,6,8,11622551
East Liberty,618 Mellon St,Pittsburgh,PA,15206,40.469034,-79.925865,SingleFamily,3240,2210,909,0.41,1910,3,5,10,11622821
Shadyside,316 Lehigh Ave,Pittsburgh,PA,15232,40.45666,-79.926665,SingleFamily,4438,2592,2828,1.09,1910,3.5,4,8,11624880
Shadyside,618 S Negley Ave,Pittsburgh,PA,15232,40.453979,-79.932801,SingleFamily,1667,2018,2698,1.34,1910,2,2,5,11625259
Shadyside,375 Lehigh Ave,Pittsburgh,PA,15232,40.455004,-79.926158,MultiFamily2To4,3000,2004,2189,1.09,1910,2,2,12,11625531
Squirrel Hill South,5906 Douglas St,Pittsburgh,PA,15217,40.433077,-79.919559,SingleFamily,4350,2407,2244,0.93,1910,4,5,9,11635025
Point Breeze North,7034 Thomas Blvd,Pittsburgh,PA,15208,40.451774,-79.903416,SingleFamily,8371,3921,1931,0.49,1911,5,7,10,11287313
Beltzhoover,87 Sylvania Ave,Pittsburgh,PA,15210,40.41738,-80.006389,SingleFamily,3000,1408,849,0.6,1911,1,2,6,11324507
Shadyside,620 S Negley Ave,Pittsburgh,PA,15232,40.454071,-79.932531,SingleFamily,6997,4585,2850,0.62,1911,3.5,4,12,11625326
Central Lawrenceville,4823 Blackberry Way,Pittsburgh,PA,15201,40.476674,-79.958214,SingleFamily,651,832,1284,1.54,1911,1,2,6,121887159
Central Northside,1306 Monterey St,Pittsburgh,PA,15212,40.456574,-80.013206,SingleFamily,950,1476,1544,1.05,1912,2,3,5,11388240
Squirrel Hill North,5821 Ferree St,Pittsburgh,PA,15217,40.440994,-79.922326,SingleFamily,4900,2657,2913,1.1,1912,2.5,5,8,11630755
Fine View,647 Rising Main Ave,Pittsburgh,PA,15212,40.46433,-80.001017,SingleFamily,2400,1796,989,0.55,1913,2,3,5,11506252
Shadyside,5613 Howe St,Pittsburgh,PA,15232,40.45122,-79.931299,SingleFamily,4869,3054,3252,1.06,1913,3.5,4,10,11628585
Squirrel Hill North,1415 Squirrel Hill Ave,Pittsburgh,PA,15217,40.440936,-79.932757,SingleFamily,100,4210,3316,0.79,1913,3.5,6,11,11630523
Carrick,640 Laughlin Ave,Pittsburgh,PA,15210,40.404466,-79.978397,SingleFamily,8025,1200,847,0.71,1914,1,3,5,11435392
Sheraden,2793 Zephyr Ave,Pittsburgh,PA,15204,40.454534,-80.052089,SingleFamily,5000,1782,924,0.52,1914,2,4,7,11483684
Mount Washington,314 Virginia Ave,Pittsburgh,PA,15211,40.431486,-80.011324,SingleFamily,3244,960,1079,1.12,1915,1,2,6,11515369
Point Breeze,121 S Lexington Ave,Pittsburgh,PA,15208,40.447842,-79.899453,SingleFamily,11565,2906,3296,1.13,1915,3.5,5,10,11287805
Point Breeze,525 S Lang Ave,Pittsburgh,PA,15208,40.44546,-79.906115,SingleFamily,2500,1820,2148,1.18,1915,1.5,4,6,11288436
East Liberty,5652 Stanton Ave,Pittsburgh,PA,15206,40.470523,-79.924407,MultiFamily2To4,13446,6000,1751,0.29,1915,6,9,19,11622484
Greenfield,3611 Beechwood Blvd,Pittsburgh,PA,15217,40.425641,-79.927079,MultiFamily2To4,3294,1891,996,0.53,1915,,0,10,11636459
Morningside,6933 Standish St,Pittsburgh,PA,15206,40.485963,-79.923371,SingleFamily,2900,1500,1303,0.87,1916,2,4,8,11278543
Carrick,1635 Leolyn St,Pittsburgh,PA,15210,40.399085,-79.985988,SingleFamily,2546,2000,863,0.43,1916,2.5,3,6,11556930
Squirrel Hill South,5847 Nicholson St,Pittsburgh,PA,15217,40.431766,-79.921158,MultiFamily2To4,3504,2699,1492,0.55,1916,3,4,13,11634908
Brookline,358 Lamarido St,Pittsburgh,PA,15226,40.400107,-80.015978,SingleFamily,3000,1336,1201,0.9,1917,1,3,6,11562057
Squirrel Hill South,2415 Beechwood Blvd,Pittsburgh,PA,15217,40.43206,-79.914769,SingleFamily,8250,2125,2332,1.1,1918,1.5,3,6,11289690
Arlington,2830 Spring St,Pittsburgh,PA,15210,40.41537,-79.967994,SingleFamily,5760,1731,946,0.55,1918,,3,6,11309180
Mount Washington,443 Winton St,Pittsburgh,PA,15211,40.423277,-79.998843,SingleFamily,3750,2019,1170,0.58,1918,2,3,6,11314743
Brookline,535 Fordham Ave,Pittsburgh,PA,15226,40.393451,-80.025286,SingleFamily,5311,2109,1430,0.68,1918,2,4,6,11652712
Sheraden,2749 Merwyn Ave,Pittsburgh,PA,15204,40.454689,-80.049914,SingleFamily,7405,1960,878,0.45,1919,1,4,4,11483775
Morningside,822 Jancey St,Pittsburgh,PA,15206,40.474361,-79.931091,SingleFamily,4004,1643,1158,0.7,1919,1,3,6,11620606
Squirrel Hill South,6621 Darlington Rd,Pittsburgh,PA,15217,40.435904,-79.912567,SingleFamily,5251,2352,2665,1.13,1920,3,5,9,11289423
Swisshelm Park,110 Homestead St,Pittsburgh,PA,15218,40.41927,-79.900443,SingleFamily,3840,1239,1346,1.09,1920,2,2,5,11290342
Crafton Heights,964 Ringgold St,Pittsburgh,PA,15220,40.444173,-80.048529,SingleFamily,6860,1504,1045,0.69,1920,1,3,6,11366844
Perry South,1788 Perrysville Ave,Pittsburgh,PA,15212,40.460419,-80.012653,SingleFamily,3232,1154,921,0.8,1920,1.5,2,5,11387300
Troy Hill,1115 Troy Hill Rd,Pittsburgh,PA,15212,40.456826,-79.990706,SingleFamily,2178,1040,1103,1.06,1920,1.5,3,5,11395482
Upper Hill,3400 Webster Ave,Pittsburgh,PA,15219,40.454852,-79.961604,SingleFamily,8254,2628,1081,0.41,1920,3,5,8,11403552
Bon Air,206 Camfield St,Pittsburgh,PA,15210,40.409127,-79.998624,SingleFamily,4800,910,861,0.95,1920,1,2,5,11436183
Beechview,1509 Beechview Ave,Pittsburgh,PA,15216,40.412564,-80.024569,SingleFamily,3450,2360,1044,0.44,1920,2,5,9,11444763
Beechview,1697 Suburban Ave,Pittsburgh,PA,15216,40.409787,-80.020015,MultiFamily2To4,5240,2328,864,0.37,1920,,0,14,11445566
Crafton Heights,1273 Clairhaven St,Pittsburgh,PA,15205,40.438532,-80.054635,SingleFamily,4100,1776,1022,0.58,1920,1,3,6,11475972
Marshall - Shadeland,2921 Breker St,Pittsburgh,PA,15212,40.471365,-80.029767,SingleFamily,3900,1360,855,0.63,1920,1,2,6,11498290
Lower Lawrenceville,3827 Liberty Ave,Pittsburgh,PA,15201,40.462599,-79.959821,SingleFamily,1088,1620,1090,0.67,1920,2,4,7,11514734
Shadyside,5504 Howe St,Pittsburgh,PA,15232,40.450166,-79.933022,SingleFamily,2424,3441,3107,0.9,1920,3,4,8,11529355
Squirrel Hill North,1320 Bennington Ave,Pittsburgh,PA,15217,40.442412,-79.932916,SingleFamily,14000,5452,3687,0.68,1920,5,7,11,11533891
Hazelwood,5235 Gertrude St,Pittsburgh,PA,15207,40.405279,-79.941334,SingleFamily,3450,2405,895,0.37,1920,1,5,6,11550895
Highland Park,5559 Hampton St,Pittsburgh,PA,15206,40.476168,-79.925778,SingleFamily,7950,4114,2714,0.66,1920,3.5,6,8,11620271
Highland Park,921 N Saint Clair St,Pittsburgh,PA,15206,40.472675,-79.923133,MultiFamily2To4,3880,2464,930,0.38,1920,3,6,12,11620971
Squirrel Hill South,6327 Crombie St,Pittsburgh,PA,15217,40.4312,-79.916806,MultiFamily2To4,2500,2003,1428,0.71,1920,,0,9,11635060
Brookline,1403 Brookline Blvd,Pittsburgh,PA,15226,40.392566,-80.009166,SingleFamily,3150,1392,974,0.7,1920,2,2,6,11649099
Brookline,936 Fordham Ave,Pittsburgh,PA,15226,40.389729,-80.021292,SingleFamily,3600,1623,1218,0.75,1920,2,3,6,11653283
Beechview,1605 Fallowfield Ave,Pittsburgh,PA,15216,40.410336,-80.02345,SingleFamily,3000,1065,874,0.82,1921,1,2,5,11445526
Hazelwood,545 Frayne St,Pittsburgh,PA,15207,40.416862,-79.936862,SingleFamily,2883,1024,852,0.83,1921,1.5,2,4,11545510
Brighton Heights,1501 Davis Ave,Pittsburgh,PA,15212,40.480556,-80.037841,SingleFamily,7400,2000,1147,0.57,1921,3,5,7,11603683
Knoxville,321 Mckinley St,Pittsburgh,PA,15210,40.409892,-79.994207,SingleFamily,2945,1596,867,0.54,1922,1,5,6,11436442
Greenfield,4124 Stanley St,Pittsburgh,PA,15207,40.423811,-79.944159,SingleFamily,2444,1452,1380,0.95,1922,2,4,7,11540170
Carrick,152 Hornaday Rd,Pittsburgh,PA,15210,40.394766,-79.983036,SingleFamily,4800,2069,885,0.43,1922,1,3,7,11557361
Mount Washington,244 Albert St,Pittsburgh,PA,15211,40.422617,-80.00802,SingleFamily,3120,924,1025,1.11,1923,1,2,6,11323354
Perry South,619 Danbury St,Pittsburgh,PA,15214,40.468932,-80.017998,SingleFamily,3771,1613,938,0.58,1924,1,3,6,11498825
Carrick,233 Meredith St,Pittsburgh,PA,15210,40.398104,-79.984087,SingleFamily,4335,1944,906,0.47,1924,2,3,6,11556982
Brookline,851 Fordham Ave,Pittsburgh,PA,15226,40.390969,-80.022174,SingleFamily,3600,1303,976,0.75,1924,1,3,6,11653446
Highland Park,6417 Stanton Ave,Pittsburgh,PA,15206,40.469534,-79.912671,SingleFamily,2805,1080,1186,1.1,1925,1,3,5,11284239
Point Breeze,7044 Edgerton Ave,Pittsburgh,PA,15208,40.446212,-79.906807,SingleFamily,5250,1312,1830,1.39,1925,1,3,7,11288145
Carrick,304 Sunnyland Ave,Pittsburgh,PA,15227,40.382951,-79.984862,SingleFamily,7320,2156,896,0.42,1925,1,3,11,11305812
Mount Washington,73 Pasadena St,Pittsburgh,PA,15211,40.423081,-80.001482,SingleFamily,2500,1575,1259,0.8,1925,1,4,6,11323570
Mount Washington,147 Labelle St,Pittsburgh,PA,15211,40.434903,-80.015633,SingleFamily,2880,1020,1167,1.14,1925,1,3,6,11363453
Upper Hill,4271 Bryn Mawr Rd,Pittsburgh,PA,15219,40.450913,-79.957054,SingleFamily,4417,2296,1471,0.64,1925,2,3,8,11407301
North Oakland,4245 Parkman Ave,Pittsburgh,PA,15213,40.448348,-79.957284,SingleFamily,6711,2888,3327,1.15,1925,3,5,7,11407517
Beechview,1635 Methyl St,Pittsburgh,PA,15216,40.408971,-80.025292,SingleFamily,2500,1320,970,0.73,1925,1,3,6,11445701
Crafton Heights,2874 Sanborn St,Pittsburgh,PA,15204,40.451345,-80.057046,SingleFamily,3000,1144,929,0.81,1925,1,3,6,11479164
Garfield,5341 Waterford St,Pittsburgh,PA,15224,40.465478,-79.936843,SingleFamily,2921,1600,1221,0.76,1925,2,4,6,11520558
Shadyside,580 Moorhead Pl,Pittsburgh,PA,15232,40.452507,-79.939056,SingleFamily,4360,2637,3282,1.24,1925,4,4,9,11528551
Brookline,2303 Beaufort Ave,Pittsburgh,PA,15226,40.399818,-80.018485,SingleFamily,4200,1626,1455,0.89,1925,3,3,6,11565893
Brighton Heights,1734 Verner Ave,Pittsburgh,PA,15212,40.481564,-80.043324,SingleFamily,9600,1574,978,0.62,1925,2,3,6,11603511
Perry North,3008 Marshall Rd,Pittsburgh,PA,15214,40.476236,-80.015245,SingleFamily,4919,1776,1134,0.64,1925,1,3,6,11609812
Morningside,1413 Morningside Ave,Pittsburgh,PA,15206,40.481762,-79.930285,SingleFamily,3300,1600,1502,0.94,1925,2,4,7,11619447
Squirrel Hill North,5551 Aylesboro Ave,Pittsburgh,PA,15217,40.439633,-79.928986,SingleFamily,12729,5925,3786,0.64,1925,4.5,6,9,11630958
Squirrel Hill South,6351 Morrowfield Ave,Pittsburgh,PA,15217,40.427377,-79.920715,SingleFamily,7500,1976,2205,1.12,1925,4,4,8,11635916
Squirrel Hill South,4024 Ludwick St,Pittsburgh,PA,15217,40.424622,-79.925217,SingleFamily,4170,1488,1901,1.28,1925,2,4,7,11636406
Brookline,1126 Milan Ave,Pittsburgh,PA,15226,40.393619,-80.013477,SingleFamily,3600,864,862,1,1925,1,2,6,11648906
Brookline,1227 Brookline Blvd,Pittsburgh,PA,15226,40.392473,-80.011648,SingleFamily,3150,1860,1070,0.58,1925,2,3,7,11649076
Mount Washington,416 Iberia St,Pittsburgh,PA,15211,40.424223,-80.000206,SingleFamily,2613,1202,1260,1.05,1926,1,3,6,11517027
Overbrook,2147 Fairland St,Pittsburgh,PA,15210,40.389872,-79.994414,SingleFamily,3750,1144,1059,0.93,1926,2,3,6,11647431
Overbrook,407 Merritt Ave,Pittsburgh,PA,15227,40.383482,-79.987301,SingleFamily,3348,1276,927,0.73,1927,1.5,3,6,11305671
Shadyside,1 Shadyside Ln,Pittsburgh,PA,15232,40.450918,-79.941749,SingleFamily,7266,2500,3271,1.31,1927,3,3,6,11528318
Greenfield,709 Montclair St,Pittsburgh,PA,15217,40.42082,-79.932993,SingleFamily,1713,1180,1162,0.98,1927,1,3,5,11545228
Beechview,2011 Texdale St,Pittsburgh,PA,15216,40.403473,-80.021036,SingleFamily,3920,1152,874,0.76,1927,1,3,6,11565298
Duquesne Heights,1522 Well St,Pittsburgh,PA,15211,40.436148,-80.023076,SingleFamily,3000,1408,1321,0.94,1927,3.5,3,8,11585591
Squirrel Hill North,1237 Murdoch Rd,Pittsburgh,PA,15217,40.444356,-79.930092,SingleFamily,6645,1944,2468,1.27,1927,2.5,4,7,11629708
Morningside,1115 Morningside Ave,Pittsburgh,PA,15206,40.477984,-79.931503,SingleFamily,4000,1740,1335,0.77,1928,2,3,6,11619654
Squirrel Hill South,6324 Morrowfield Ave,Pittsburgh,PA,15217,40.427102,-79.921921,Condominium,4100,1697,1791,1.06,1928,1.5,3,7,11635899
Brookline,803 Norwich Ave,Pittsburgh,PA,15226,40.391293,-80.024163,SingleFamily,3600,1218,994,0.82,1928,1,3,5,11653322
Brighton Heights,3929 Riddile St,Pittsburgh,PA,15212,40.485021,-80.040599,SingleFamily,4488,1740,1093,0.63,1929,1,3,7,11268772
East Liberty,701 N Saint Clair St,Pittsburgh,PA,15206,40.469254,-79.92523,SingleFamily,3929,3091,1109,0.36,1929,2,5,9,11622858
Brookline,916 Rossmore Ave,Pittsburgh,PA,15226,40.393804,-80.017323,SingleFamily,3300,2184,1184,0.54,1929,1,4,6,11653026
Brighton Heights,2011 Termon Ave,Pittsburgh,PA,15212,40.482571,-80.044992,SingleFamily,5003,1698,976,0.57,1930,2,5,7,11269232
Stanton Heights,1357 Hawthorne St,Pittsburgh,PA,15201,40.482775,-79.936411,SingleFamily,3600,966,1144,1.18,1930,1,3,6,11275883
Morningside,1661 Jancey St,Pittsburgh,PA,15206,40.484232,-79.928455,SingleFamily,1600,1080,933,0.86,1930,1,2,5,11278709
Point Breeze North,7223 Penn Ave,Pittsburgh,PA,15208,40.449139,-79.900415,SingleFamily,4520,2025,1574,0.78,1930,1.5,4,7,11287810
Squirrel Hill South,6601 Darlington Rd,Pittsburgh,PA,15217,40.436278,-79.913159,SingleFamily,6461,2350,2357,1,1930,3,5,8,11289426
Perry North,38 Perryview Ave,Pittsburgh,PA,15214,40.494641,-80.023019,SingleFamily,5600,1716,1162,0.68,1930,1.5,3,6,11327756
Perry North,40 Bascom Ave,Pittsburgh,PA,15214,40.493588,-80.023064,SingleFamily,4067,1700,1039,0.61,1930,1.5,3,7,11327984
Beechview,1312 Beechview Ave,Pittsburgh,PA,15216,40.415688,-80.025289,MultiFamily2To4,3000,2404,884,0.37,1930,,0,11,11335796
Central Northside,110 E Jefferson St,Pittsburgh,PA,15212,40.459549,-80.008864,SingleFamily,756,1344,1004,0.75,1930,1.5,3,6,11387986
North Oakland,4243 Parkman Ave,Pittsburgh,PA,15213,40.448255,-79.957411,SingleFamily,6921,2876,3284,1.14,1930,3.5,5,8,11407518
Carrick,1701 Mount Joseph St,Pittsburgh,PA,15210,40.397669,-79.990946,SingleFamily,3920,1814,900,0.5,1930,1,4,8,11556827
Brookline,2401 Glenarm Ave,Pittsburgh,PA,15226,40.39534,-80.015915,SingleFamily,3600,2151,1120,0.52,1930,2,5,8,11562563
Brookline,715 Brookline Blvd,Pittsburgh,PA,15226,40.394727,-80.020834,MultiFamily2To4,3600,2560,974,0.38,1930,1,3,14,11566717
Mount Washington,202 Olympia St,Pittsburgh,PA,15211,40.434597,-80.017197,SingleFamily,5067,2004,1271,0.63,1930,1.5,3,7,11586281
Brighton Heights,3507 Gerber Ave,Pittsburgh,PA,15212,40.479649,-80.033719,SingleFamily,6146,1628,1020,0.63,1930,2,3,6,11603781
Highland Park,1231 N Highland Ave,Pittsburgh,PA,15206,40.475422,-79.918561,Condominium,2173,1504,1407,0.94,1930,1.5,3,6,11620486
Squirrel Hill North,5914 Braeburn Pl,Pittsburgh,PA,15232,40.448339,-79.922235,SingleFamily,12240,4228,3724,0.88,1930,4.5,5,10,11629192
Squirrel Hill South,5529 Beacon St,Pittsburgh,PA,15217,40.434173,-79.929494,SingleFamily,4125,2138,2453,1.15,1930,2,5,7,11631703
Squirrel Hill South,6334 Ebdy St,Pittsburgh,PA,15217,40.424344,-79.922691,SingleFamily,6093,1711,1863,1.09,1930,1.5,3,7,11636608
Brookline,2417 Hobson Ave,Pittsburgh,PA,15226,40.388818,-80.009699,SingleFamily,4800,1536,1163,0.76,1930,1,3,6,11650023
Overbrook,234 Provost Rd,Pittsburgh,PA,15227,40.376227,-79.99434,SingleFamily,3920,1320,1081,0.82,1931,2.5,3,6,11306299
Greenfield,4118 Winterburn Ave,Pittsburgh,PA,15207,40.424562,-79.940058,SingleFamily,2548,848,1198,1.41,1931,1,2,5,11540346
Greenfield,1003 Flemington St,Pittsburgh,PA,15217,40.427566,-79.930353,SingleFamily,2296,1218,1231,1.01,1931,1,2,6,11635607
Stanton Heights,1376 Simona Dr,Pittsburgh,PA,15201,40.483301,-79.936535,SingleFamily,4848,1288,1341,1.04,1932,1,3,6,11275863
Beechview,2128 Pauline Ave,Pittsburgh,PA,15216,40.405093,-80.026685,SingleFamily,2912,1969,1010,0.51,1932,2,4,6,11446107
Point Breeze,426 Glen Arden Dr,Pittsburgh,PA,15208,40.448486,-79.912147,SingleFamily,11900,3738,3342,0.89,1934,4,5,10,11287486
Westwood,1976 Warriors Rd,Pittsburgh,PA,15205,40.428244,-80.047077,SingleFamily,10000,1540,1255,0.81,1935,3,3,5,11356104
Avalon,620 Grandview Ave,Pittsburgh,PA,15202,40.506752,-80.068318,SingleFamily,6000,1139,1094,0.96,1935,1,2,6,11368235
Bloomfield,4006 Howley St,Pittsburgh,PA,15224,40.463781,-79.956983,SingleFamily,686,1076,1096,1.02,1935,1,3,6,11514810
Brookline,380 Lamarido St,Pittsburgh,PA,15226,40.400082,-80.01511,SingleFamily,3000,1485,1131,0.76,1935,2,3,6,11562065
Brookline,524 Bellaire Ave,Pittsburgh,PA,15226,40.396543,-80.022646,Condominium,3522,1064,974,0.92,1935,1,2,5,11566745
Highland Park,6016 Wellesley Ave,Pittsburgh,PA,15206,40.472206,-79.919093,SingleFamily,4207,2470,2565,1.04,1935,4,4,9,11620985
Shadyside,765 College Ave APT 305,Pittsburgh,PA,15232,40.454016,-79.926999,Condominium,1030,1082,1583,1.46,1935,2,2,4,11625437
Perry North,173 Watson Blvd,Pittsburgh,PA,15214,40.482446,-80.010067,SingleFamily,2063,968,837,0.86,1936,1,2,5,11271007
Bloomfield,439 S Pacific Ave,Pittsburgh,PA,15224,40.458371,-79.940568,SingleFamily,4119,2176,1830,0.84,1936,1.5,4,7,11524967
Point Breeze,143 Conover Rd,Pittsburgh,PA,15208,40.453125,-79.911706,SingleFamily,6000,1939,2474,1.28,1938,3.5,4,7,11286374
California-Kirkbride,1245 Island Ave,Pittsburgh,PA,15212,40.46282,-80.026683,SingleFamily,1545,1071,981,0.92,1939,2,2,6,11499368
Stanton Heights,1101 Premier St,Pittsburgh,PA,15201,40.483383,-79.939831,SingleFamily,3000,1204,1238,1.03,1940,2,3,6,11275726
North Oakland,144 N Dithridge St APT 611,Pittsburgh,PA,15213,40.448247,-79.951144,Condominium,2045,2045,1736,0.85,1940,2.5,3,5,11407728
North Oakland,144 N Dithridge St APT 205,Pittsburgh,PA,15213,40.448194,-79.950992,Condominium,744,744,1091,1.47,1940,1,0,3,11407757
North Oakland,144 N Dithridge St APT 409,Pittsburgh,PA,15213,40.448104,-79.950938,Condominium,1557,1557,1346,0.86,1940,1,2,4,11407783
Perry South,46 W Mcintyre Ave,Pittsburgh,PA,15214,40.468852,-80.011054,SingleFamily,3143,880,818,0.93,1940,1,3,6,11505429
Brookline,405 Fernhill Ave,Pittsburgh,PA,15226,40.401167,-80.01421,SingleFamily,6000,2063,1209,0.59,1940,2.5,4,7,11562146
Marshall - Shadeland,1015 Grand Ave,Pittsburgh,PA,15212,40.474644,-80.025972,SingleFamily,4500,1197,934,0.78,1940,2,2,7,11606120
Stanton Heights,113 Stanton Ct W,Pittsburgh,PA,15201,40.481651,-79.935914,SingleFamily,3850,1720,1382,0.8,1940,2,3,6,11615250
Morningside,1404 Morningside Ave,Pittsburgh,PA,15206,40.481406,-79.929801,SingleFamily,3200,1920,1426,0.74,1940,1.5,3,7,11619455
Squirrel Hill South,2927 Fernwald Rd,Pittsburgh,PA,15217,40.423826,-79.918208,SingleFamily,4000,1816,2086,1.15,1940,1.5,4,7,11636732
Brookline,1614 Rockford Ave,Pittsburgh,PA,15226,40.385077,-80.012179,SingleFamily,7500,1094,1050,0.96,1940,1.5,4,6,11650289
Westwood,1904 Warriors Rd,Pittsburgh,PA,15205,40.429979,-80.048167,SingleFamily,5000,1008,1047,1.04,1941,1,2,5,11355936
Duquesne Heights,454 Oneida St,Pittsburgh,PA,15211,40.431273,-80.02147,SingleFamily,3975,1196,1199,1,1941,1,3,6,11554676
Overbrook,2336 Hillview St,Pittsburgh,PA,15234,40.378071,-79.996274,SingleFamily,7000,1238,1049,0.85,1942,1.5,3,5,11306132
Squirrel Hill North,1040 Highmont Rd,Pittsburgh,PA,15232,40.450451,-79.921792,SingleFamily,12065,5363,3358,0.63,1942,5.5,5,12,11628986
Elliott,625 Herschel St,Pittsburgh,PA,15220,40.437924,-80.0411,SingleFamily,5060,2109,1142,0.54,1944,2,3,5,11362665
Point Breeze,7100 Card Ln,Pittsburgh,PA,15208,40.448937,-79.904381,SingleFamily,6400,2550,2381,0.93,1945,2,4,10,11287738
Brookline,2459 Woodward Ave,Pittsburgh,PA,15226,40.398771,-80.023591,SingleFamily,4000,1232,1134,0.92,1945,2,3,8,11566247
Marshall - Shadeland,1125 Highwood St,Pittsburgh,PA,15212,40.468064,-80.026239,SingleFamily,1928,1120,810,0.72,1946,1,3,6,11498696
Squirrel Hill North,6425 Forbes Ave,Pittsburgh,PA,15217,40.438222,-79.91676,SingleFamily,3632,2052,2524,1.23,1948,2.5,4,8,11631252
Brookline,616 Woodbourne Ave,Pittsburgh,PA,15226,40.393676,-80.023609,SingleFamily,3600,1144,1096,0.96,1948,1,3,6,11652775
Greenfield,520 Loretto Rd,Pittsburgh,PA,15217,40.420736,-79.938974,SingleFamily,4081,1109,1305,1.18,1949,2,3,5,11545092
Squirrel Hill South,2952 Fernwald Rd,Pittsburgh,PA,15217,40.423895,-79.919199,SingleFamily,10653,1856,2242,1.21,1949,2,4,8,11636691
Point Breeze,297 S Murtland St,Pittsburgh,PA,15208,40.448976,-79.906745,SingleFamily,36017,4546,3514,0.77,1950,6,5,10,11287763
Beechview,811 Shadycrest Rd,Pittsburgh,PA,15216,40.423227,-80.025099,SingleFamily,6271,1200,1209,1.01,1950,2,3,7,11335414
Bon Air,325 Conniston Ave,Pittsburgh,PA,15210,40.406943,-79.99904,SingleFamily,6000,875,880,1.01,1950,1,3,6,11436913
Squirrel Hill North,5124 Holyrood Rd,Pittsburgh,PA,15213,40.445385,-79.938386,SingleFamily,12707,2463,3386,1.37,1950,4,4,7,11529694
Greenfield,3921 Coleman St,Pittsburgh,PA,15207,40.426781,-79.941848,SingleFamily,3600,1431,1381,0.97,1950,2.5,3,6,11539702
Greenfield,3977 Beechwood Blvd,Pittsburgh,PA,15217,40.427528,-79.935863,SingleFamily,4539,968,1253,1.29,1950,1,2,5,11539892
Wind Gap,3633 Middletown Rd,Pittsburgh,PA,15204,40.458446,-80.07361,SingleFamily,8900,1423,1205,0.85,1950,2,4,5,11592495
Stanton Heights,935 Morningside Ave,Pittsburgh,PA,15206,40.476415,-79.932045,SingleFamily,5280,1502,1446,0.96,1950,2,5,9,11620222
Carrick,2440 Edgar St,Pittsburgh,PA,15210,40.385847,-79.982304,SingleFamily,4510,1276,919,0.72,1950,1,3,6,11645840
Carrick,140 Eiler Ave,Pittsburgh,PA,15210,40.391016,-79.983899,SingleFamily,5200,1276,871,0.68,1950,1.5,3,6,11647622
Southside Flats,2250 Mary St APT 110,Pittsburgh,PA,15203,40.425542,-79.97472,Condominium,1230,1535,2144,1.4,1950,1,1,5,54623809
Mount Washington,211 Bailey Ave,Pittsburgh,PA,15211,40.427142,-80.002885,SingleFamily,2066,2243,2670,1.19,1950,2.5,4,8,92380806
Stanton Heights,6512 Martha St,Pittsburgh,PA,15206,40.486583,-79.930602,SingleFamily,3733,1680,1173,0.7,1951,2,4,9,11278275
Swisshelm Park,1236 Windermere Dr,Pittsburgh,PA,15218,40.422517,-79.902235,SingleFamily,12600,2011,2241,1.11,1951,2,4,7,11290108
Swisshelm Park,1218 Windermere Dr,Pittsburgh,PA,15218,40.422888,-79.902697,SingleFamily,6900,1948,2362,1.21,1952,2.5,4,9,11290111
Lincoln Place,1621 Mcelhinny Ave,Pittsburgh,PA,15207,40.365908,-79.908193,SingleFamily,4740,975,873,0.9,1952,1.5,3,6,11352217
Brighton Heights,3918 Oswald St,Pittsburgh,PA,15212,40.485134,-80.042823,SingleFamily,4515,1224,924,0.75,1954,2,3,6,11268675
Banksville,1128 Carnahan Rd,Pittsburgh,PA,15216,40.409284,-80.038539,SingleFamily,6534,950,1082,1.14,1954,1.5,2,6,11452948
Banksville,2219 Old Oak Dr,Pittsburgh,PA,15220,40.401063,-80.044682,SingleFamily,8754,1671,1451,0.87,1954,2,3,7,11570643
Stanton Heights,4239 Upview Ter,Pittsburgh,PA,15201,40.478906,-79.945448,SingleFamily,4284,1330,1247,0.94,1954,1.5,3,6,11615370
Carrick,213 Cedarcove St,Pittsburgh,PA,15227,40.388902,-79.973298,SingleFamily,7140,936,1069,1.14,1954,2,3,5,11645736
Westwood,1233 Colescott St,Pittsburgh,PA,15205,40.434719,-80.048139,SingleFamily,4680,1150,1187,1.03,1955,1.5,4,9,11362727
Banksville,2355 Rose Garden Rd,Pittsburgh,PA,15220,40.407275,-80.043166,SingleFamily,7200,1784,1287,0.72,1955,2,4,8,11453187
Shadyside,4932 Ellsworth Ave,Pittsburgh,PA,15213,40.450357,-79.943666,SingleFamily,11250,3167,3388,1.07,1955,4,5,7,11528331
Greenfield,4011 Beechwood Blvd,Pittsburgh,PA,15217,40.426999,-79.936718,SingleFamily,3238,1480,1477,1,1955,2.5,3,6,11539905
Carrick,316 Poplargrove St,Pittsburgh,PA,15210,40.397266,-79.982162,SingleFamily,6000,1924,896,0.47,1955,2,3,6,11554105
Banksville,2741 Bellingham Ave,Pittsburgh,PA,15216,40.403059,-80.03927,SingleFamily,6088,925,895,0.97,1955,1,3,5,11570430
Duquesne Heights,418 Edith St,Pittsburgh,PA,15211,40.435995,-80.025033,SingleFamily,2700,920,873,0.95,1955,1,2,5,11585516
Wind Gap,3720 Elberton St,Pittsburgh,PA,15204,40.46046,-80.07491,SingleFamily,6000,1194,1112,0.93,1955,1,2,5,11592199
Wind Gap,3840 Windgap Ave,Pittsburgh,PA,15204,40.458994,-80.077679,SingleFamily,5200,992,859,0.87,1955,1,3,5,11592322
Squirrel Hill South,6650 Landview Rd,Pittsburgh,PA,15217,40.421516,-79.920861,SingleFamily,9012,1053,1652,1.57,1955,2.5,3,5,11639662
Brookline,1320 Milan Ave,Pittsburgh,PA,15226,40.393633,-80.009575,SingleFamily,4444,1242,1080,0.87,1955,1.5,2,6,11649142
Highland Park,1425 N Highland Ave,Pittsburgh,PA,15206,40.477413,-79.917234,SingleFamily,7700,3190,2754,0.86,1956,4,4,8,11620057
Beechview,1306 Princess Ave,Pittsburgh,PA,15216,40.413875,-80.017814,SingleFamily,3000,1290,976,0.76,1957,1,3,6,11335958
Beechview,1617 Rutherford Ave,Pittsburgh,PA,15216,40.409737,-80.026236,SingleFamily,3000,1100,886,0.81,1957,1,3,6,11445256
Banksville,1843 Woodcove Pl,Pittsburgh,PA,15216,40.408766,-80.036375,SingleFamily,6720,955,1197,1.25,1957,1.5,3,5,11453300
Hazelwood,390 Susanna Ct,Pittsburgh,PA,15207,40.417924,-79.941115,SingleFamily,5160,1260,1380,1.1,1957,2,3,6,11545430
Squirrel Hill South,4353 Saline St,Pittsburgh,PA,15217,40.419393,-79.925742,SingleFamily,7651,2608,2313,0.89,1957,4,5,12,11639993
Oakwood,36 Baldwick Rd,Pittsburgh,PA,15205,40.429366,-80.064529,SingleFamily,12320,1266,1160,0.92,1958,2.5,4,6,11473780
Brighton Heights,3335 Brighton Rd,Pittsburgh,PA,15212,40.477613,-80.031866,SingleFamily,5662,1622,1187,0.73,1958,2.5,3,7,11605774
Point Breeze,3 Shadycourt Dr,Pittsburgh,PA,15232,40.450376,-79.919817,SingleFamily,8250,2888,3249,1.13,1958,2.5,2,6,11629051
Stanton Heights,14 Fairfield Ct,Pittsburgh,PA,15201,40.482821,-79.934736,SingleFamily,4122,1188,1237,1.04,1960,1,3,6,11275845
Beechview,1338 Fallowfield Ave,Pittsburgh,PA,15216,40.414721,-80.024259,SingleFamily,3450,1050,930,0.89,1960,1,2,5,11335885
Beechview,252 Sebring Ave,Pittsburgh,PA,15216,40.412774,-80.014979,SingleFamily,3000,672,894,1.33,1960,1,3,5,11439937
Beechview,1542 Rutherford Ave,Pittsburgh,PA,15216,40.411025,-80.026845,SingleFamily,3000,1176,1016,0.86,1960,2,3,6,11445234
Banksville,1104 Kirsopp Ave,Pittsburgh,PA,15220,40.409408,-80.037098,SingleFamily,6240,1315,1321,1,1960,2,4,6,11452910
Hazelwood,512 Susanna Ct,Pittsburgh,PA,15207,40.418077,-79.939311,SingleFamily,4300,1440,1465,1.02,1960,2,3,6,11545456
Squirrel Hill North,5452 Northumberland St,Pittsburgh,PA,15217,40.439388,-79.931658,SingleFamily,8712,2115,3289,1.56,1960,3,3,6,11630934
Carrick,511 Brinwood Ave,Pittsburgh,PA,15227,40.393166,-79.978774,SingleFamily,17520,1288,1020,0.79,1960,1.5,3,7,11644930
Carrick,234 Nuzum Ave,Pittsburgh,PA,15210,40.391671,-79.981943,SingleFamily,8805,1261,944,0.75,1960,1.5,3,5,11645174
Brookline,768 Southcrest Dr,Pittsburgh,PA,15226,40.406316,-80.008618,SingleFamily,11280,1260,1247,0.99,1961,2,3,6,11440504
Brookline,1894 Woodward Ave,Pittsburgh,PA,15226,40.404988,-80.017461,SingleFamily,5336,1000,1039,1.04,1961,1.5,3,6,11446315
Squirrel Hill North,1532 Asbury Pl,Pittsburgh,PA,15217,40.44073,-79.921017,Townhouse,2053,1824,2504,1.37,1961,3.5,3,7,11630840
Point Breeze,217 S Lang Ave,Pittsburgh,PA,15208,40.448373,-79.904706,SingleFamily,4460,2460,2538,1.03,1963,3,4,7,11287734
Banksville,2437 Rose Garden Rd,Pittsburgh,PA,15220,40.408036,-80.044886,SingleFamily,6000,1764,1753,0.99,1963,2.5,4,7,11453173
Point Breeze North,6936 Thomas Blvd,Pittsburgh,PA,15208,40.452481,-79.905757,SingleFamily,3943,1800,1849,1.03,1964,2,3,7,11287283
Central Business District,320 Fort Duquesne Blvd # 17-O,Pittsburgh,PA,15222,40.442715,-80.006935,Condominium,1110,647,1143,1.77,1964,1,1,3,11363025
Central Business District,320 Fort Duquesne Blvd APT 24A,Pittsburgh,PA,15222,40.442273,-80.006947,Condominium,716,1032,1264,1.22,1964,1,1,4,11363088
Central Business District,320 Fort Duquesne Blvd APT 17N,Pittsburgh,PA,15222,40.44269,-80.006717,Condominium,1033,1033,1223,1.18,1964,1,1,3,11363247
Greenfield,786 Melbourne St,Pittsburgh,PA,15217,40.422094,-79.930624,SingleFamily,2250,936,1152,1.23,1964,1.5,2,5,11639417
Chartiers City,1360 Harlow Dr,Pittsburgh,PA,15204,40.458423,-80.0706,SingleFamily,8712,928,887,0.96,1965,1,3,5,11592452
Crafton Heights,109 Cedarbrook Dr,Pittsburgh,PA,15220,40.441605,-80.048845,SingleFamily,6095,1244,1263,1.02,1966,2.5,3,7,11362093
Central Business District,112 Washington Pl APT 12G,Pittsburgh,PA,15219,40.439298,-79.992824,Condominium,938,938,1278,1.36,1967,1.5,1,4,11420456
Shadyside,5825 5th Ave APT 310,Pittsburgh,PA,15232,40.451382,-79.926439,Condominium,594,594,1130,1.9,1968,1,1,2,11628940
Shadyside,5825 5th Ave APT 315,Pittsburgh,PA,15232,40.451541,-79.926275,Condominium,1270,1270,1722,1.36,1968,2,2,5,11628947
Shadyside,5 Bayard Rd APT 815,Pittsburgh,PA,15213,40.452554,-79.941938,Condominium,848,848,1207,1.42,1969,1,1,3,11528521
Shadyside,4707 Bayard St,Pittsburgh,PA,15213,40.450594,-79.948559,SingleFamily,5624,1920,2771,1.44,1971,2.5,3,6,11528231
Overbrook,200 Pinecastle Ave,Pittsburgh,PA,15234,40.382514,-79.999301,SingleFamily,5063,1276,1159,0.91,1972,1.5,4,7,11305552
Banksville,1484 Daleland Ave,Pittsburgh,PA,15220,40.415886,-80.041491,SingleFamily,8917,1662,1354,0.81,1972,2.5,3,7,11346934
North Oakland,220 N Dithridge St APT 1007,Pittsburgh,PA,15213,40.44961,-79.951643,Condominium,1473,1473,1660,1.13,1972,2,2,4,11407580
North Oakland,552 N Neville St APT 61,Pittsburgh,PA,15213,40.448587,-79.948465,Condominium,966,966,1192,1.23,1972,1,1,4,11528996
North Oakland,220 N Dithridge St APT 1106,Pittsburgh,PA,15213,40.449658,-79.951615,Condominium,1607,1607,1788,1.11,1973,2,2,4,11407587
North Oakland,540 N Neville St APT 607,Pittsburgh,PA,15213,40.449056,-79.948428,Condominium,1910,1910,2231,1.17,1973,2,2,5,11529053
Oakland,3261 Niagara Sq,Pittsburgh,PA,15213,40.43442,-79.959809,Condominium,565,1080,1144,1.06,1975,1,1,3,11413317
Squirrel Hill South,5600 Munhall Rd APT 1005,Pittsburgh,PA,15217,40.433138,-79.926194,Condominium,1100,1100,1545,1.4,1975,2,2,5,11631792
Oakland,3162 Bohem St,Pittsburgh,PA,15213,40.428859,-79.953454,SingleFamily,1600,1077,1227,1.14,1978,2,4,5,11420227
Mount Washington,111 Grandview Ave APT 301,Pittsburgh,PA,15211,40.431489,-80.007279,Condominium,2130,2130,2931,1.38,1978,2,2,5,11515518
Mount Washington,111 Grandview Ave APT 703,Pittsburgh,PA,15211,40.431506,-80.007128,Condominium,2130,2130,3099,1.45,1978,2.5,3,5,11515530
Shadyside,707 Clyde St,Pittsburgh,PA,15213,40.447937,-79.94515,SingleFamily,2451,1600,2615,1.63,1978,3,4,7,11529197
Wind Gap,3780 Chartiers Ave,Pittsburgh,PA,15204,40.45786,-80.074067,SingleFamily,25264,1826,1517,0.83,1978,3,3,5,11592488
Squirrel Hill South,22 Timberline Ct,Pittsburgh,PA,15217,40.422988,-79.925707,Condominium,1646,1694,1988,1.17,1978,1.5,3,6,11639483
Mount Washington,812 Grandview Ave APT 3B,Pittsburgh,PA,15211,40.43629,-80.014724,Condominium,2444,2444,3532,1.45,1980,4.5,3,6,11363312
Squirrel Hill North,5742 5th Ave APT 104,Pittsburgh,PA,15232,40.449846,-79.927995,Condominium,2584,2584,2643,1.02,1980,2,3,5,11629175
Squirrel Hill North,307 Schenley Rd,Pittsburgh,PA,15217,40.440204,-79.936743,Condominium,1965,2128,3064,1.44,1982,3,3,7,11534068
Mount Washington,141 Ulysses St,Pittsburgh,PA,15211,40.433699,-80.012039,SingleFamily,1507,1382,1332,0.96,1985,2,2,5,11363447
Squirrel Hill North,110 Schenley Rd,Pittsburgh,PA,15217,40.439745,-79.937823,Condominium,3604,2204,3183,1.44,1985,2.5,3,7,11533992
Squirrel Hill North,1522 S Negley Ave,Pittsburgh,PA,15217,40.440574,-79.925758,Condominium,1250,2127,2676,1.26,1985,3.5,3,6,11630731
Squirrel Hill North,118 N Woodland Rd,Pittsburgh,PA,15232,40.451572,-79.924043,Condominium,1480,1560,2598,1.67,1987,2.5,2,5,11629018
Squirrel Hill North,203 N Woodland Rd,Pittsburgh,PA,15232,40.451202,-79.92411,SingleFamily,1833,2228,2797,1.26,1991,3,2,6,11629014
Squirrel Hill South,18 Rosemont Ln,Pittsburgh,PA,15217,40.421781,-79.915952,SingleFamily,9615,2974,3308,1.11,1994,3.5,3,9,11290004
Bloomfield,41 Hemingway St,Pittsburgh,PA,15213,40.456745,-79.950363,Condominium,1568,1748,2216,1.27,1995,1.5,3,5,11403310
Southside Flats,28 S 17th St,Pittsburgh,PA,15203,40.431475,-79.981966,Townhouse,821,1720,2374,1.38,1999,2.5,2,6,11290476
Herrs Island,6 Waterside Pl,Pittsburgh,PA,15222,40.461989,-79.978746,Condominium,2875,2410,3255,1.35,1999,4,4,9,11400336
Lincoln Place,1219 Stock St,Pittsburgh,PA,15207,40.36608,-79.915112,SingleFamily,4500,1352,890,0.66,2001,2,3,6,11352138
Southside Flats,2250 Mary St APT 103,Pittsburgh,PA,15203,40.425581,-79.974543,Condominium,1135,1600,2124,1.33,2001,2,1,7,58729872
Squirrel Hill South,1104 Crescent Pl,Pittsburgh,PA,15217,40.423259,-79.912542,SingleFamily,3484,2276,2787,1.22,2002,2.5,3,5,58629164
Squirrel Hill South,1336 Fairstead Ln,Pittsburgh,PA,15217,40.420497,-79.915708,SingleFamily,3279,1964,2696,1.37,2004,2.5,3,7,72261385
Mount Washington,447 Grace St,Pittsburgh,PA,15211,40.428768,-80.013848,SingleFamily,3005,1488,1678,1.13,2005,2.5,3,5,87992859
Duquesne Heights,5 Meta St,Pittsburgh,PA,15211,40.431001,-80.021927,SingleFamily,11646,1920,1445,0.75,2005,3.5,3,7,11554624
Shadyside,5570 Centre Ave APT 101,Pittsburgh,PA,15232,40.455936,-79.934722,Condominium,1308,1308,2265,1.73,2006,2,2,4,87802108
Duquesne Heights,224 Hallock St,Pittsburgh,PA,15211,40.434176,-80.018515,Townhouse,2670,1536,1743,1.13,2007,2.5,3,6,87988964
Squirrel Hill South,1554 Overton Ln,Pittsburgh,PA,15217,40.418699,-79.917721,SingleFamily,3729,1742,2505,1.44,2008,2.5,3,7,87802121
Central Business District,301 5th Ave APT 509,Pittsburgh,PA,15222,40.44091,-79.999633,Condominium,1054,1054,1923,1.82,2008,1,1,3,92380541
Central Business District,301 5th Ave APT 520,Pittsburgh,PA,15222,40.44091,-79.999633,Condominium,1284,1284,2545,1.98,2009,2,2,4,92380469
Bloomfield,115 Gross St,Pittsburgh,PA,15224,40.464817,-79.944038,Townhouse,930,1515,1769,1.17,2009,1.5,1,6,104363430
Squirrel Hill South,1695 Biltmore Ln,Pittsburgh,PA,15217,40.418755,-79.920481,SingleFamily,5298,3392,3230,0.95,2013,3.5,5,7,121886682